{
"type": "FeatureCollection",
"name": "Canchas",
"crs": { "type": "name", "properties": { "name": "urn:ogc:def:crs:OGC:1.3:CRS84" } },
"features": [
{ "type": "Feature", "properties": { "Nombre": "Cancha De Futbol De Valle Del Sol" }, "geometry": { "type": "Point", "coordinates": [ -89.1904858, 13.8233407, 0.0 ] } },
{ "type": "Feature", "properties": { "Nombre": "Cancha 'La Bola'." }, "geometry": { "type": "Point", "coordinates": [ -89.1808955, 13.7096101, 0.0 ] } },
{ "type": "Feature", "properties": { "Nombre": "Cancha deportiva" }, "geometry": { "type": "Point", "coordinates": [ -89.2106011, 13.7028361, 0.0 ] } },
{ "type": "Feature", "properties": { "Nombre": "Cancha de futbol el almendro" }, "geometry": { "type": "Point", "coordinates": [ -89.2371726, 13.7153531, 0.0 ] } },
{ "type": "Feature", "properties": { "Nombre": "Cancha De Fútbol" }, "geometry": { "type": "Point", "coordinates": [ -89.2268596, 13.7091253, 0.0 ] } },
{ "type": "Feature", "properties": { "Nombre": "Cancha de Futbol Comunidad El Paraiso" }, "geometry": { "type": "Point", "coordinates": [ -89.2088237, 13.7243677, 0.0 ] } },
{ "type": "Feature", "properties": { "Nombre": "Cancha La Estrella" }, "geometry": { "type": "Point", "coordinates": [ -89.211225, 13.7386072, 0.0 ] } },
{ "type": "Feature", "properties": { "Nombre": "Canchas de Futbol Rápido Chapupo Rodriguez" }, "geometry": { "type": "Point", "coordinates": [ -89.2243899, 13.6846996, 0.0 ] } },
{ "type": "Feature", "properties": { "Nombre": "Cancha Lincoln" }, "geometry": { "type": "Point", "coordinates": [ -89.2101374, 13.7313816, 0.0 ] } },
{ "type": "Feature", "properties": { "Nombre": "Padel Town adentro de Gambeta Los Próceres" }, "geometry": { "type": "Point", "coordinates": [ -89.227597, 13.6794281, 0.0 ] } },
{ "type": "Feature", "properties": { "Nombre": "Cancha de fútbol 5 de Noviembre" }, "geometry": { "type": "Point", "coordinates": [ -89.180894, 13.7096268, 0.0 ] } },
{ "type": "Feature", "properties": { "Nombre": "CODEM" }, "geometry": { "type": "Point", "coordinates": [ -89.2320506, 13.6899962, 0.0 ] } },
{ "type": "Feature", "properties": { "Nombre": "BEE Soccer SV" }, "geometry": { "type": "Point", "coordinates": [ -89.2164962, 13.7262066, 0.0 ] } },
{ "type": "Feature", "properties": { "Nombre": "Canchita Fútbol Rápido" }, "geometry": { "type": "Point", "coordinates": [ -89.1673096, 13.7031866, 0.0 ] } },
{ "type": "Feature", "properties": { "Nombre": "Cancha De Futbol Vista Bella 3" }, "geometry": { "type": "Point", "coordinates": [ -89.2084808, 13.6725826, 0.0 ] } },
{ "type": "Feature", "properties": { "Nombre": "Cancha de Fútbol" }, "geometry": { "type": "Point", "coordinates": [ -89.190636, 13.6627029, 0.0 ] } },
{ "type": "Feature", "properties": { "Nombre": "Cancha De Sierra Morena" }, "geometry": { "type": "Point", "coordinates": [ -89.1464745, 13.6914586, 0.0 ] } },
{ "type": "Feature", "properties": { "Nombre": "SANALPO O Cachas Deportivas de Centro Américan" }, "geometry": { "type": "Point", "coordinates": [ -89.2313101, 13.6998104, 0.0 ] } },
{ "type": "Feature", "properties": { "Nombre": "Gambeta • Los Próceres" }, "geometry": { "type": "Point", "coordinates": [ -89.227962, 13.6804002, 0.0 ] } },
{ "type": "Feature", "properties": { "Nombre": "Cancha de Fútbol" }, "geometry": { "type": "Point", "coordinates": [ -89.2040987, 13.7228473, 0.0 ] } },
{ "type": "Feature", "properties": { "Nombre": "Futbol Sala" }, "geometry": { "type": "Point", "coordinates": [ -89.2202547, 13.681616, 0.0 ] } },
{ "type": "Feature", "properties": { "Nombre": "El Soccercito (Cancha Colegio Theodor Herzl)" }, "geometry": { "type": "Point", "coordinates": [ -89.1919698, 13.707651, 0.0 ] } },
{ "type": "Feature", "properties": { "Nombre": "Cancha de futbol" }, "geometry": { "type": "Point", "coordinates": [ -89.2077516, 13.7488538, 0.0 ] } },
{ "type": "Feature", "properties": { "Nombre": "Cancha de fútbol Centro Escolar Republica de Panamá" }, "geometry": { "type": "Point", "coordinates": [ -89.1806128, 13.7137204, 0.0 ] } },
{ "type": "Feature", "properties": { "Nombre": "Complejo Deportivo Valle Nuevo - ACOREVAN" }, "geometry": { "type": "Point", "coordinates": [ -89.1345534, 13.6826492, 0.0 ] } },
{ "type": "Feature", "properties": { "Nombre": "Cancha colonia Los 80's" }, "geometry": { "type": "Point", "coordinates": [ -89.168656399999989, 13.6921397, 0.0 ] } },
{ "type": "Feature", "properties": { "Nombre": "Fútbol Rápido" }, "geometry": { "type": "Point", "coordinates": [ -89.2203421, 13.6819677, 0.0 ] } },
{ "type": "Feature", "properties": { "Nombre": "Cancha de Fútbol Rápido" }, "geometry": { "type": "Point", "coordinates": [ -89.1175422, 13.7167279, 0.0 ] } },
{ "type": "Feature", "properties": { "Nombre": "Cancha de Fútbol “La Ceiba”" }, "geometry": { "type": "Point", "coordinates": [ -89.161354, 13.7989667, 0.0 ] } },
{ "type": "Feature", "properties": { "Nombre": "Parque de la Colonia El Mirador" }, "geometry": { "type": "Point", "coordinates": [ -89.1826097, 13.6657483, 0.0 ] } },
{ "type": "Feature", "properties": { "Nombre": "Multisoccer" }, "geometry": { "type": "Point", "coordinates": [ -89.24591, 13.6767193, 0.0 ] } },
{ "type": "Feature", "properties": { "Nombre": "Cancha de fútbol" }, "geometry": { "type": "Point", "coordinates": [ -89.1886298, 13.6408454, 0.0 ] } },
{ "type": "Feature", "properties": { "Nombre": "Cancha de Fútbol “Corazón de María”" }, "geometry": { "type": "Point", "coordinates": [ -89.2335697, 13.7005138, 0.0 ] } },
{ "type": "Feature", "properties": { "Nombre": "Escuela De Futbol Municipal" }, "geometry": { "type": "Point", "coordinates": [ -89.2165184, 13.7262542, 0.0 ] } },
{ "type": "Feature", "properties": { "Nombre": "Cancha" }, "geometry": { "type": "Point", "coordinates": [ -89.1905254, 13.7545347, 0.0 ] } },
{ "type": "Feature", "properties": { "Nombre": "Cancha de Fútbol y Basketball 400's" }, "geometry": { "type": "Point", "coordinates": [ -89.2037055, 13.7312064, 0.0 ] } },
{ "type": "Feature", "properties": { "Nombre": "Cancha De Futbol De La Comunidad Santa Monica" }, "geometry": { "type": "Point", "coordinates": [ -88.7664725, 13.4883444, 0.0 ] } },
{ "type": "Feature", "properties": { "Nombre": "Cancha fútbol rápido Castilleja" }, "geometry": { "type": "Point", "coordinates": [ -89.1720618, 13.6919055, 0.0 ] } },
{ "type": "Feature", "properties": { "Nombre": "Cancha de Futbol Residencial Jardines del Cerro" }, "geometry": { "type": "Point", "coordinates": [ -89.1644034, 13.6911114, 0.0 ] } },
{ "type": "Feature", "properties": { "Nombre": "Cancha \"La Ceiba\" Zaragoza, El Salvador" }, "geometry": { "type": "Point", "coordinates": [ -89.2885671, 13.584856, 0.0 ] } },
{ "type": "Feature", "properties": { "Nombre": "Cancha de fútbol INFRAMEN" }, "geometry": { "type": "Point", "coordinates": [ -89.180038, 13.7111048, 0.0 ] } },
{ "type": "Feature", "properties": { "Nombre": "Centro Recreativo Hector Silva Cancha" }, "geometry": { "type": "Point", "coordinates": [ -89.1728631, 13.69283, 0.0 ] } },
{ "type": "Feature", "properties": { "Nombre": "cancha lirios" }, "geometry": { "type": "Point", "coordinates": [ -89.1737458, 13.7714014, 0.0 ] } },
{ "type": "Feature", "properties": { "Nombre": "Cancha de fútbol rapido \"Las Campanitas\"" }, "geometry": { "type": "Point", "coordinates": [ -89.1820868, 13.647626, 0.0 ] } },
{ "type": "Feature", "properties": { "Nombre": "Cancha De Fútbol de la Colonia Las Palmas." }, "geometry": { "type": "Point", "coordinates": [ -89.1250543, 13.6922059, 0.0 ] } },
{ "type": "Feature", "properties": { "Nombre": "Cancha de fútbol Cantón Veracruz" }, "geometry": { "type": "Point", "coordinates": [ -89.0924501, 13.7379257, 0.0 ] } },
{ "type": "Feature", "properties": { "Nombre": "Cancha Unilever" }, "geometry": { "type": "Point", "coordinates": [ -89.1710336, 13.7035533, 0.0 ] } },
{ "type": "Feature", "properties": { "Nombre": "colonia plan piloto 1° de septiembre" }, "geometry": { "type": "Point", "coordinates": [ -89.2181911, 13.6929403, 0.0 ] } },
{ "type": "Feature", "properties": { "Nombre": "Cancha de Colonia Buena Vista, Mejicanos" }, "geometry": { "type": "Point", "coordinates": [ -89.1910814, 13.7364568, 0.0 ] } },
{ "type": "Feature", "properties": { "Nombre": "Cancha de futbol Col. Monte Blanco" }, "geometry": { "type": "Point", "coordinates": [ -89.1224992, 13.7170005, 0.0 ] } },
{ "type": "Feature", "properties": { "Nombre": "Cancha Los Angeles" }, "geometry": { "type": "Point", "coordinates": [ -89.1895699, 13.799023, 0.0 ] } },
{ "type": "Feature", "properties": { "Nombre": "Cancha Parroquial" }, "geometry": { "type": "Point", "coordinates": [ -89.184883, 13.7565422, 0.0 ] } },
{ "type": "Feature", "properties": { "Nombre": "Canchas y Complejo Deportivo Colonia Santa Clara" }, "geometry": { "type": "Point", "coordinates": [ -89.1816007, 13.7258422, 0.0 ] } },
{ "type": "Feature", "properties": { "Nombre": "Cancha Campos Verdes I" }, "geometry": { "type": "Point", "coordinates": [ -89.3657666, 13.7138479, 0.0 ] } },
{ "type": "Feature", "properties": { "Nombre": "Monumental Estadio Villa hermosa" }, "geometry": { "type": "Point", "coordinates": [ -89.1818765, 13.7845876, 0.0 ] } },
{ "type": "Feature", "properties": { "Nombre": "Be Sport Bernal" }, "geometry": { "type": "Point", "coordinates": [ -89.2166179, 13.7259936, 0.0 ] } },
{ "type": "Feature", "properties": { "Nombre": "Cancha De Fútbol Prados De Venecia 4" }, "geometry": { "type": "Point", "coordinates": [ -89.1460006, 13.7205409, 0.0 ] } },
{ "type": "Feature", "properties": { "Nombre": "Cancha De La Colonia San Antonio" }, "geometry": { "type": "Point", "coordinates": [ -88.9277588, 13.7166057, 0.0 ] } },
{ "type": "Feature", "properties": { "Nombre": "Cancha de Fútbol Colonia Colinas del Norte" }, "geometry": { "type": "Point", "coordinates": [ -89.1709278, 13.7517763, 0.0 ] } },
{ "type": "Feature", "properties": { "Nombre": "Cancha Villa Real Sur" }, "geometry": { "type": "Point", "coordinates": [ -89.1872823, 13.7804103, 0.0 ] } },
{ "type": "Feature", "properties": { "Nombre": "Cancha de Fútbol de los Altos de Mariona" }, "geometry": { "type": "Point", "coordinates": [ -89.1835383, 13.7730276, 0.0 ] } },
{ "type": "Feature", "properties": { "Nombre": "Cancha Antel" }, "geometry": { "type": "Point", "coordinates": [ -89.1286552, 13.7218375, 0.0 ] } },
{ "type": "Feature", "properties": { "Nombre": "Canchita ex escuela San Antonio Las Vegas" }, "geometry": { "type": "Point", "coordinates": [ -89.1689583, 13.7679394, 0.0 ] } },
{ "type": "Feature", "properties": { "Nombre": "canchas" }, "geometry": { "type": "Point", "coordinates": [ -89.189768, 14.0139451, 0.0 ] } },
{ "type": "Feature", "properties": { "Nombre": "Cancha de futbol San Rafael Los Turcos" }, "geometry": { "type": "Point", "coordinates": [ -89.1919882, 14.0426222, 0.0 ] } },
{ "type": "Feature", "properties": { "Nombre": "Cancha de fútbol" }, "geometry": { "type": "Point", "coordinates": [ -89.1758087, 13.4767089, 0.0 ] } },
{ "type": "Feature", "properties": { "Nombre": "Cacha de fútbol de Santos 3" }, "geometry": { "type": "Point", "coordinates": [ -89.1298803, 13.7102923, 0.0 ] } },
{ "type": "Feature", "properties": { "Nombre": "Campo de fútbol Comunidad San Francisco 2" }, "geometry": { "type": "Point", "coordinates": [ -89.1824443, 13.6886672, 0.0 ] } },
{ "type": "Feature", "properties": { "Nombre": "Canchas Santa leonor de San Antonio Abad" }, "geometry": { "type": "Point", "coordinates": [ -89.2298594, 13.7250375, 0.0 ] } },
{ "type": "Feature", "properties": { "Nombre": "La cancha prusia" }, "geometry": { "type": "Point", "coordinates": [ -89.132952, 13.699178, 0.0 ] } },
{ "type": "Feature", "properties": { "Nombre": "Cancha De Popotlan" }, "geometry": { "type": "Point", "coordinates": [ -89.1656177, 13.8012003, 0.0 ] } },
{ "type": "Feature", "properties": { "Nombre": "Mini Cancha" }, "geometry": { "type": "Point", "coordinates": [ -89.1842065, 13.6554775, 0.0 ] } },
{ "type": "Feature", "properties": { "Nombre": "Cancha de fútbol Urb. Montes de San Bartolo Etapa 4" }, "geometry": { "type": "Point", "coordinates": [ -89.1301864, 13.7217054, 0.0 ] } },
{ "type": "Feature", "properties": { "Nombre": "Cancha de Fútbol La Rabanera" }, "geometry": { "type": "Point", "coordinates": [ -89.1732039, 13.7766902, 0.0 ] } },
{ "type": "Feature", "properties": { "Nombre": "Cancha de futbol Cantón el Rosario" }, "geometry": { "type": "Point", "coordinates": [ -89.0825682, 13.7748603, 0.0 ] } },
{ "type": "Feature", "properties": { "Nombre": "Cancha de Ciudad Obrera" }, "geometry": { "type": "Point", "coordinates": [ -89.1802076, 13.8094035, 0.0 ] } },
{ "type": "Feature", "properties": { "Nombre": "Cancha de fútbol los 100" }, "geometry": { "type": "Point", "coordinates": [ -89.2074084, 13.7265704, 0.0 ] } },
{ "type": "Feature", "properties": { "Nombre": "Radio Vea" }, "geometry": { "type": "Point", "coordinates": [ -89.073047699999989, 13.7142583, 0.0 ] } },
{ "type": "Feature", "properties": { "Nombre": "Cancha San Francisco \"El mapa\"" }, "geometry": { "type": "Point", "coordinates": [ -89.1643635, 13.7214588, 0.0 ] } },
{ "type": "Feature", "properties": { "Nombre": "Cancha de la MAN" }, "geometry": { "type": "Point", "coordinates": [ -89.1836933, 13.6633297, 0.0 ] } },
{ "type": "Feature", "properties": { "Nombre": "Cancha De Fútbol" }, "geometry": { "type": "Point", "coordinates": [ -89.1460162, 13.7206651, 0.0 ] } },
{ "type": "Feature", "properties": { "Nombre": "Cancha de Futbol Metropolis \"La Polvosa\"" }, "geometry": { "type": "Point", "coordinates": [ -89.2118835, 13.7301648, 0.0 ] } },
{ "type": "Feature", "properties": { "Nombre": "CANCHA DE FUTBOL, BARRIO SANTUARIO" }, "geometry": { "type": "Point", "coordinates": [ -88.7777935, 13.6439484, 0.0 ] } },
{ "type": "Feature", "properties": { "Nombre": "Cancha Istmania" }, "geometry": { "type": "Point", "coordinates": [ -89.1688727, 13.7643202, 0.0 ] } },
{ "type": "Feature", "properties": { "Nombre": "Cancha de Fútbol Libre Comunidad Nueva Esperanza" }, "geometry": { "type": "Point", "coordinates": [ -89.2393395, 13.8203741, 0.0 ] } },
{ "type": "Feature", "properties": { "Nombre": "Cancha de fútbol" }, "geometry": { "type": "Point", "coordinates": [ -89.5710349, 14.3481796, 0.0 ] } },
{ "type": "Feature", "properties": { "Nombre": "Cancha col Ivu" }, "geometry": { "type": "Point", "coordinates": [ -89.2096784, 13.6891656, 0.0 ] } },
{ "type": "Feature", "properties": { "Nombre": "Cancha Calavera - CaserioMedia Luna, Sonsonate, El Salvador" }, "geometry": { "type": "Point", "coordinates": [ -89.7236406, 13.581536, 0.0 ] } },
{ "type": "Feature", "properties": { "Nombre": "Cancha El Polvorín" }, "geometry": { "type": "Point", "coordinates": [ -89.1067064, 13.7248253, 0.0 ] } },
{ "type": "Feature", "properties": { "Nombre": "Cancha de futbol sala" }, "geometry": { "type": "Point", "coordinates": [ -89.2037658, 13.7515021, 0.0 ] } },
{ "type": "Feature", "properties": { "Nombre": "Cancha El Angel" }, "geometry": { "type": "Point", "coordinates": [ -89.202492, 13.8014802, 0.0 ] } },
{ "type": "Feature", "properties": { "Nombre": "Cancha San Bartolo 2A Etapa" }, "geometry": { "type": "Point", "coordinates": [ -89.1038022, 13.7090569, 0.0 ] } },
{ "type": "Feature", "properties": { "Nombre": "Cancha de football" }, "geometry": { "type": "Point", "coordinates": [ -89.2042342, 13.7553254, 0.0 ] } },
{ "type": "Feature", "properties": { "Nombre": "Cancha de futbol Brasil" }, "geometry": { "type": "Point", "coordinates": [ -88.2152196, 13.3478822, 0.0 ] } },
{ "type": "Feature", "properties": { "Nombre": "Cancha Papi Futbol" }, "geometry": { "type": "Point", "coordinates": [ -89.128654, 13.728394, 0.0 ] } },
{ "type": "Feature", "properties": { "Nombre": "Cancha" }, "geometry": { "type": "Point", "coordinates": [ -89.1767624, 13.7648145, 0.0 ] } },
{ "type": "Feature", "properties": { "Nombre": "Cancha Futbol Sala # 1" }, "geometry": { "type": "Point", "coordinates": [ -89.1425455, 13.7243124, 0.0 ] } },
{ "type": "Feature", "properties": { "Nombre": "La Canchita 5 de Noviembre" }, "geometry": { "type": "Point", "coordinates": [ -89.185859, 13.7084011, 0.0 ] } },
{ "type": "Feature", "properties": { "Nombre": "Cancha Amatepec #2" }, "geometry": { "type": "Point", "coordinates": [ -89.1709486, 13.6965634, 0.0 ] } },
{ "type": "Feature", "properties": { "Nombre": "Cancha de bosques de prusia" }, "geometry": { "type": "Point", "coordinates": [ -89.1335671, 13.7098882, 0.0 ] } },
{ "type": "Feature", "properties": { "Nombre": "Cancha de Fútbol \"Las Palmeras\"" }, "geometry": { "type": "Point", "coordinates": [ -89.2004362, 13.5771784, 0.0 ] } },
{ "type": "Feature", "properties": { "Nombre": "Canchas Futbol Rapido Estadio Cuscatlán" }, "geometry": { "type": "Point", "coordinates": [ -89.2206742, 13.6818498, 0.0 ] } },
{ "type": "Feature", "properties": { "Nombre": "Cancha de Fútbol Nahualapa" }, "geometry": { "type": "Point", "coordinates": [ -88.9913164, 13.4854437, 0.0 ] } },
{ "type": "Feature", "properties": { "Nombre": "Cancha los burros" }, "geometry": { "type": "Point", "coordinates": [ -89.0648797, 13.8114195, 0.0 ] } },
{ "type": "Feature", "properties": { "Nombre": "Cancha Villa Real Norte" }, "geometry": { "type": "Point", "coordinates": [ -89.1863431, 13.7814296, 0.0 ] } },
{ "type": "Feature", "properties": { "Nombre": "Cancha de futbol las torres" }, "geometry": { "type": "Point", "coordinates": [ -89.2772255, 13.8282652, 0.0 ] } },
{ "type": "Feature", "properties": { "Nombre": "Cancha SANTA ELENA" }, "geometry": { "type": "Point", "coordinates": [ -89.2689103, 13.6391892, 0.0 ] } },
{ "type": "Feature", "properties": { "Nombre": "Cancha de Fútbol Col. Costa Rica" }, "geometry": { "type": "Point", "coordinates": [ -89.2024637, 13.6783943, 0.0 ] } },
{ "type": "Feature", "properties": { "Nombre": "cancha" }, "geometry": { "type": "Point", "coordinates": [ -89.2340741, 14.045192, 0.0 ] } },
{ "type": "Feature", "properties": { "Nombre": "CANCHA DE FÚTBOL" }, "geometry": { "type": "Point", "coordinates": [ -89.1643823, 13.6060584, 0.0 ] } },
{ "type": "Feature", "properties": { "Nombre": "Cancha de Futbol El Centro" }, "geometry": { "type": "Point", "coordinates": [ -88.8461747, 13.6940927, 0.0 ] } },
{ "type": "Feature", "properties": { "Nombre": "Cancha" }, "geometry": { "type": "Point", "coordinates": [ -89.058078, 13.7475893, 0.0 ] } },
{ "type": "Feature", "properties": { "Nombre": "Cancha de futbol colonia la Chacra" }, "geometry": { "type": "Point", "coordinates": [ -89.1711056, 13.6992096, 0.0 ] } },
{ "type": "Feature", "properties": { "Nombre": "Cancha Colonia Nuevo Calvario" }, "geometry": { "type": "Point", "coordinates": [ -88.794609, 13.6885166, 0.0 ] } },
{ "type": "Feature", "properties": { "Nombre": "Cancha de Futbol" }, "geometry": { "type": "Point", "coordinates": [ -89.1839429, 13.8010391, 0.0 ] } },
{ "type": "Feature", "properties": { "Nombre": "Cancha El Campito" }, "geometry": { "type": "Point", "coordinates": [ -88.9313164, 13.724426, 0.0 ] } },
{ "type": "Feature", "properties": { "Nombre": "CANCHA DE FOOTBALL" }, "geometry": { "type": "Point", "coordinates": [ -88.5441157, 13.2809917, 0.0 ] } },
{ "type": "Feature", "properties": { "Nombre": "Cancha La Primavera" }, "geometry": { "type": "Point", "coordinates": [ -88.9536132, 14.0391635, 0.0 ] } },
{ "type": "Feature", "properties": { "Nombre": "Cancha de Futbol" }, "geometry": { "type": "Point", "coordinates": [ -88.8106915, 13.6522533, 0.0 ] } },
{ "type": "Feature", "properties": { "Nombre": "Cancha de la colonia Florencia" }, "geometry": { "type": "Point", "coordinates": [ -89.1744114, 13.7263203, 0.0 ] } },
{ "type": "Feature", "properties": { "Nombre": "Comunal canton el refujio santo domingo el salvador" }, "geometry": { "type": "Point", "coordinates": [ -88.8476157, 13.7181858, 0.0 ] } },
{ "type": "Feature", "properties": { "Nombre": "Cancha De Fútbol, Tacanagua" }, "geometry": { "type": "Point", "coordinates": [ -89.0436134, 13.8234397, 0.0 ] } },
{ "type": "Feature", "properties": { "Nombre": "Cancha de Fútbol" }, "geometry": { "type": "Point", "coordinates": [ -88.4713575, 13.4521908, 0.0 ] } },
{ "type": "Feature", "properties": { "Nombre": "Cancha de futbol #2 Valle Lourdes" }, "geometry": { "type": "Point", "coordinates": [ -89.3793815, 13.7290615, 0.0 ] } },
{ "type": "Feature", "properties": { "Nombre": "Cancha De Fútbol Tihuilocoyo cede oficial de club deportivo JLH" }, "geometry": { "type": "Point", "coordinates": [ -88.9797132, 13.4381203, 0.0 ] } },
{ "type": "Feature", "properties": { "Nombre": "Cancha de Fútbol" }, "geometry": { "type": "Point", "coordinates": [ -88.7283999, 14.011331, 0.0 ] } },
{ "type": "Feature", "properties": { "Nombre": "La Canchita" }, "geometry": { "type": "Point", "coordinates": [ -89.0546528, 13.7453489, 0.0 ] } },
{ "type": "Feature", "properties": { "Nombre": "Cancha de Fútbol de Matazano" }, "geometry": { "type": "Point", "coordinates": [ -89.3213552, 13.7837424, 0.0 ] } },
{ "type": "Feature", "properties": { "Nombre": "Cancha de Basketball y Fútbol Colonia Miralvalle Norte" }, "geometry": { "type": "Point", "coordinates": [ -89.225597, 13.726745, 0.0 ] } },
{ "type": "Feature", "properties": { "Nombre": "Cancha de Fútbol La Urba" }, "geometry": { "type": "Point", "coordinates": [ -89.2797528, 13.8278296, 0.0 ] } },
{ "type": "Feature", "properties": { "Nombre": "Cancha de Urb Los Naranjos" }, "geometry": { "type": "Point", "coordinates": [ -89.1723096, 13.7945577, 0.0 ] } },
{ "type": "Feature", "properties": { "Nombre": "Canchita Atlacatl" }, "geometry": { "type": "Point", "coordinates": [ -89.1768072, 13.7134525, 0.0 ] } },
{ "type": "Feature", "properties": { "Nombre": "Cancha De La Colonia El Refugio" }, "geometry": { "type": "Point", "coordinates": [ -89.1999698, 13.7184102, 0.0 ] } },
{ "type": "Feature", "properties": { "Nombre": "Cancha de futbol Hoja de Sal" }, "geometry": { "type": "Point", "coordinates": [ -88.946268, 13.4133944, 0.0 ] } },
{ "type": "Feature", "properties": { "Nombre": "Cancha Condominios Cayala Ciudad Delgado" }, "geometry": { "type": "Point", "coordinates": [ -89.1684033, 13.7727882, 0.0 ] } },
{ "type": "Feature", "properties": { "Nombre": "Cancha de Fútbol Rápido De Toke" }, "geometry": { "type": "Point", "coordinates": [ -88.937558, 13.7254487, 0.0 ] } },
{ "type": "Feature", "properties": { "Nombre": "Cancha de la confien" }, "geometry": { "type": "Point", "coordinates": [ -89.1656849, 13.7424795, 0.0 ] } },
{ "type": "Feature", "properties": { "Nombre": "Cancha de Futbol La Sierpe" }, "geometry": { "type": "Point", "coordinates": [ -88.9345855, 14.035427, 0.0 ] } },
{ "type": "Feature", "properties": { "Nombre": "Cancha de futbol" }, "geometry": { "type": "Point", "coordinates": [ -88.619112, 13.6502614, 0.0 ] } },
{ "type": "Feature", "properties": { "Nombre": "Cancha de Futbol Rapido" }, "geometry": { "type": "Point", "coordinates": [ -89.2829924, 13.6760904, 0.0 ] } },
{ "type": "Feature", "properties": { "Nombre": "Cancha de Fútbol" }, "geometry": { "type": "Point", "coordinates": [ -89.3562423, 13.7928854, 0.0 ] } },
{ "type": "Feature", "properties": { "Nombre": "Cancha de fútbol Res. Los Girasoles" }, "geometry": { "type": "Point", "coordinates": [ -89.3000424, 13.6820749, 0.0 ] } },
{ "type": "Feature", "properties": { "Nombre": "Cancha El Polvorin" }, "geometry": { "type": "Point", "coordinates": [ -89.0969596, 13.5520614, 0.0 ] } },
{ "type": "Feature", "properties": { "Nombre": "Cancha Bonanza" }, "geometry": { "type": "Point", "coordinates": [ -89.2011417, 13.7339846, 0.0 ] } },
{ "type": "Feature", "properties": { "Nombre": "Cancha de Básquetbol, Colonia Centroamerica" }, "geometry": { "type": "Point", "coordinates": [ -89.212862199999989, 13.7117923, 0.0 ] } },
{ "type": "Feature", "properties": { "Nombre": "Cancha de el Jabalí" }, "geometry": { "type": "Point", "coordinates": [ -89.3230693, 13.7669692, 0.0 ] } },
{ "type": "Feature", "properties": { "Nombre": "Cancha de Futbol - Grama" }, "geometry": { "type": "Point", "coordinates": [ -89.1358546, 13.7173816, 0.0 ] } },
{ "type": "Feature", "properties": { "Nombre": "CANCHAS DE SAN JOSÉ LAS FLORES" }, "geometry": { "type": "Point", "coordinates": [ -89.1417494, 13.8157663, 0.0 ] } },
{ "type": "Feature", "properties": { "Nombre": "Cancha col miramonte" }, "geometry": { "type": "Point", "coordinates": [ -89.2147645, 13.7089999, 0.0 ] } },
{ "type": "Feature", "properties": { "Nombre": "Cancha de fútbol" }, "geometry": { "type": "Point", "coordinates": [ -89.3876923, 13.8313518, 0.0 ] } },
{ "type": "Feature", "properties": { "Nombre": "Cancha de Santo Tomás" }, "geometry": { "type": "Point", "coordinates": [ -89.1347207, 13.6432756, 0.0 ] } },
{ "type": "Feature", "properties": { "Nombre": "Cancha Municipal De Candelaria" }, "geometry": { "type": "Point", "coordinates": [ -88.9741996, 13.6899012, 0.0 ] } },
{ "type": "Feature", "properties": { "Nombre": "Cancha de Fútbol" }, "geometry": { "type": "Point", "coordinates": [ -89.1660265, 13.8009691, 0.0 ] } },
{ "type": "Feature", "properties": { "Nombre": "Cancha De La Nuevo Ferrocarril" }, "geometry": { "type": "Point", "coordinates": [ -89.2467083, 13.81152, 0.0 ] } },
{ "type": "Feature", "properties": { "Nombre": "Residencial Mexico, Mejicanos" }, "geometry": { "type": "Point", "coordinates": [ -89.1916627, 13.7200993, 0.0 ] } },
{ "type": "Feature", "properties": { "Nombre": "Canchas" }, "geometry": { "type": "Point", "coordinates": [ -89.14208, 13.8152695, 0.0 ] } },
{ "type": "Feature", "properties": { "Nombre": "CANCHA FUTBOL CANTON GIRON" }, "geometry": { "type": "Point", "coordinates": [ -89.2522131, 13.8561606, 0.0 ] } },
{ "type": "Feature", "properties": { "Nombre": "La Cancha De Calderitas" }, "geometry": { "type": "Point", "coordinates": [ -88.7548866, 13.7021828, 0.0 ] } },
{ "type": "Feature", "properties": { "Nombre": "Cancha de Futbol Colonia Dolores" }, "geometry": { "type": "Point", "coordinates": [ -89.1946667, 13.7305674, 0.0 ] } },
{ "type": "Feature", "properties": { "Nombre": "Cancha De fútbol Jardines De Colón" }, "geometry": { "type": "Point", "coordinates": [ -89.3584059, 13.7123301, 0.0 ] } },
{ "type": "Feature", "properties": { "Nombre": "Cancha La Almendrera" }, "geometry": { "type": "Point", "coordinates": [ -89.3318862, 13.4839906, 0.0 ] } },
{ "type": "Feature", "properties": { "Nombre": "Cancha de futbol" }, "geometry": { "type": "Point", "coordinates": [ -89.43733, 13.497241, 0.0 ] } },
{ "type": "Feature", "properties": { "Nombre": "Cancha de fútbol" }, "geometry": { "type": "Point", "coordinates": [ -89.1876243, 13.7693388, 0.0 ] } },
{ "type": "Feature", "properties": { "Nombre": "Cancha De Cumbres De San Bartolo Salazar Romero" }, "geometry": { "type": "Point", "coordinates": [ -89.1131427, 13.7275765, 0.0 ] } },
{ "type": "Feature", "properties": { "Nombre": "Cancha de Tenis de la Universidad de El Salvador" }, "geometry": { "type": "Point", "coordinates": [ -89.2036495, 13.720539, 0.0 ] } },
{ "type": "Feature", "properties": { "Nombre": "Cancha Venecia" }, "geometry": { "type": "Point", "coordinates": [ -89.1355978, 13.6903827, 0.0 ] } },
{ "type": "Feature", "properties": { "Nombre": "Cancha de Fútbol, Navarra # 2" }, "geometry": { "type": "Point", "coordinates": [ -88.7702826, 13.6406299, 0.0 ] } },
{ "type": "Feature", "properties": { "Nombre": "Cancha de futbol" }, "geometry": { "type": "Point", "coordinates": [ -89.4361316, 13.7638589, 0.0 ] } },
{ "type": "Feature", "properties": { "Nombre": "Cancha de fútbol" }, "geometry": { "type": "Point", "coordinates": [ -89.1816154, 13.6080655, 0.0 ] } },
{ "type": "Feature", "properties": { "Nombre": "Cancha de Futbol" }, "geometry": { "type": "Point", "coordinates": [ -88.9911779, 13.4041145, 0.0 ] } },
{ "type": "Feature", "properties": { "Nombre": "Cancha \"Atletico Concepción \"" }, "geometry": { "type": "Point", "coordinates": [ -89.05878, 13.8230363, 0.0 ] } },
{ "type": "Feature", "properties": { "Nombre": "Cancha de Futbol No. 4" }, "geometry": { "type": "Point", "coordinates": [ -89.2823344, 13.6766092, 0.0 ] } },
{ "type": "Feature", "properties": { "Nombre": "Cancha de Futbol Copapayo" }, "geometry": { "type": "Point", "coordinates": [ -89.4743734, 13.7530656, 0.0 ] } },
{ "type": "Feature", "properties": { "Nombre": "Cancha Prados de Venecia 3a Etapa" }, "geometry": { "type": "Point", "coordinates": [ -89.1472741, 13.7125437, 0.0 ] } },
{ "type": "Feature", "properties": { "Nombre": "Cancha de Futbol, Los Cocos" }, "geometry": { "type": "Point", "coordinates": [ -89.3849899, 13.9829884, 0.0 ] } },
{ "type": "Feature", "properties": { "Nombre": "Cancha de Futbol de Tierra" }, "geometry": { "type": "Point", "coordinates": [ -89.1546448, 13.8381014, 0.0 ] } },
{ "type": "Feature", "properties": { "Nombre": "Cancha de fútbol" }, "geometry": { "type": "Point", "coordinates": [ -88.1615073, 13.4876845, 0.0 ] } },
{ "type": "Feature", "properties": { "Nombre": "Complejo deportivo Cuscatancingo" }, "geometry": { "type": "Point", "coordinates": [ -89.1803816, 13.7283119, 0.0 ] } },
{ "type": "Feature", "properties": { "Nombre": "Cancha de futbol san Antonio" }, "geometry": { "type": "Point", "coordinates": [ -88.8460962, 13.6939561, 0.0 ] } },
{ "type": "Feature", "properties": { "Nombre": "Cancha De Futbol" }, "geometry": { "type": "Point", "coordinates": [ -89.472463499999989, 13.5126407, 0.0 ] } },
{ "type": "Feature", "properties": { "Nombre": "Cancha Canton San Andres" }, "geometry": { "type": "Point", "coordinates": [ -89.4088465, 13.8213203, 0.0 ] } },
{ "type": "Feature", "properties": { "Nombre": "Cancha de fútbol" }, "geometry": { "type": "Point", "coordinates": [ -89.301246, 13.7645645, 0.0 ] } },
{ "type": "Feature", "properties": { "Nombre": "Complejo Deportivo ANDA" }, "geometry": { "type": "Point", "coordinates": [ -89.2358842, 13.6695062, 0.0 ] } },
{ "type": "Feature", "properties": { "Nombre": "Cancha de futbol Brasil" }, "geometry": { "type": "Point", "coordinates": [ -88.1779182, 13.4792922, 0.0 ] } },
{ "type": "Feature", "properties": { "Nombre": "Cancha de Futbol" }, "geometry": { "type": "Point", "coordinates": [ -88.8148841, 13.6734125, 0.0 ] } },
{ "type": "Feature", "properties": { "Nombre": "CANCHA FUTBALL MONTE BELLO" }, "geometry": { "type": "Point", "coordinates": [ -89.5529676, 13.8284409, 0.0 ] } },
{ "type": "Feature", "properties": { "Nombre": "Cancha de Futbol" }, "geometry": { "type": "Point", "coordinates": [ -89.3811331, 13.7966815, 0.0 ] } },
{ "type": "Feature", "properties": { "Nombre": "Cancha de Básquetbol, Parque Colonia Ciudad Satelite" }, "geometry": { "type": "Point", "coordinates": [ -89.2149141, 13.72316, 0.0 ] } },
{ "type": "Feature", "properties": { "Nombre": "Cancha las margaritas" }, "geometry": { "type": "Point", "coordinates": [ -89.1430353, 13.7324658, 0.0 ] } },
{ "type": "Feature", "properties": { "Nombre": "Canchas de Fútbol Rápido \"Don Rua\"" }, "geometry": { "type": "Point", "coordinates": [ -89.1910055, 13.7112053, 0.0 ] } },
{ "type": "Feature", "properties": { "Nombre": "Cancha de Fútbol Res. Altos Del Boulevard" }, "geometry": { "type": "Point", "coordinates": [ -89.1650468, 13.7050905, 0.0 ] } },
{ "type": "Feature", "properties": { "Nombre": "Canchas Planet Goal Constitución" }, "geometry": { "type": "Point", "coordinates": [ -89.2265565, 13.7092684, 0.0 ] } },
{ "type": "Feature", "properties": { "Nombre": "Cancha De Futbol Los Angeles" }, "geometry": { "type": "Point", "coordinates": [ -89.1248566, 13.7189062, 0.0 ] } },
{ "type": "Feature", "properties": { "Nombre": "El Estadito" }, "geometry": { "type": "Point", "coordinates": [ -89.1809719, 13.7155352, 0.0 ] } },
{ "type": "Feature", "properties": { "Nombre": "Cancha El Alberjal" }, "geometry": { "type": "Point", "coordinates": [ -89.1307712, 13.7606499, 0.0 ] } },
{ "type": "Feature", "properties": { "Nombre": "Canchas COOPEFA" }, "geometry": { "type": "Point", "coordinates": [ -89.231297, 13.6847021, 0.0 ] } },
{ "type": "Feature", "properties": { "Nombre": "Cancha de Fútbol Jardines del boulevard" }, "geometry": { "type": "Point", "coordinates": [ -89.1650018, 13.6991963, 0.0 ] } },
{ "type": "Feature", "properties": { "Nombre": "Cancha futbol rapido el roble" }, "geometry": { "type": "Point", "coordinates": [ -89.230533, 13.7207232, 0.0 ] } },
{ "type": "Feature", "properties": { "Nombre": "Cancha Toluca" }, "geometry": { "type": "Point", "coordinates": [ -89.21979, 13.7112425, 0.0 ] } }
]
}
